$GPGGA,132525.000,5233.3292,N,01320.6101,E,2,07,1.38,25.9,M,44.7,M,0000,0000*52

$GPGSA,A,3,14,12,32,29,24,25,31,,,,,,2.67,1.38,2.29*0D

$GPRMC,132525.000,A,5233.3292,N,01320.6101,E,0.39,354.13,010517,,,D*6A

$GPVTG,354.13,T,,M,0.39,N,0.72,K,D*37

$GPGGA,132526.000,5233.3294,N,01320.6101,E,2,07,1.38,26.0,M,44.7,M,0000,0000*5D

$GPGSA,A,3,14,12,32,29,24,25,31,,,,,,2.67,1.38,2.29*0D

$GPRMC,132526.000,A,5233.3294,N,01320.6101,E,0.38,356.28,010517,,,D*64

$GPVTG,356.28,T,,M,0.38,N,0.71,K,D*3F

$GPGGA,132527.000,5233.3295,N,01320.6101,E,2,07,1.38,26.0,M,44.7,M,0000,0000*5D

$GPGSA,A,3,14,12,32,29,24,25,31,,,,,,2.67,1.38,2.29*0D

$GPRMC,132527.000,A,5233.3295,N,01320.6101,E,0.33,17.66,010517,,,D*53

$GPVTG,17.66,T,,M,0.33,N,0.61,K,D*09

$GPGGA,132528.000,5233.3296,N,01320.6101,E,2,07,1.25,26.0,M,44.7,M,0000,0000*5D

$GPGSA,A,3,14,12,32,29,24,25,31,,,,,,1.55,1.25,0.92*01

$GPGSV,3,1,12,25,67,283,32,12,63,078,16,02,36,106,15,24,33,153,33*7D

$GPGSV,3,2,12,14,32,293,22,32,32,265,20,29,31,211,31,06,28,055,*71

$GPGSV,3,3,12,33,24,214,,31,20,309,25,19,08,046,,03,03,354,*76

$GPRMC,132528.000,A,5233.3296,N,01320.6101,E,0.34,20.08,010517,,,D*54

$GPVTG,20.08,T,,M,0.34,N,0.63,K,D*00

$GPGGA,132529.000,5233.3296,N,01320.6102,E,2,07,1.25,26.0,M,44.7,M,0000,0000*5F

$GPGSA,A,3,14,12,32,29,24,25,31,,,,,,1.55,1.25,0.92*01

$GPRMC,132529.000,A,5233.3296,N,01320.6102,E,0.36,22.20,010517,,,D*5C

$GPVTG,22.20,T,,M,0.36,N,0.66,K,D*0F

$GPGGA,132530.000,5233.3297,N,01320.6102,E,2,07,1.25,26.0,M,44.7,M,0000,0000*56

$GPGSA,A,3,14,12,32,29,24,25,31,,,,,,1.55,1.25,0.92*01

$GPRMC,132530.000,A,5233.3297,N,01320.6102,E,0.19,7.72,010517,,,D*68

$GPVTG,7.72,T,,M,0.19,N,0.36,K,D*37

$GPGGA,132531.000,5233.3298,N,01320.6102,E,2,07,1.38,26.0,M,44.7,M,0000,0000*54

$GPGSA,A,3,14,12,32,29,24,25,31,,,,,,2.68,1.38,2.29*02

$GPRMC,132531.000,A,5233.3298,N,01320.6102,E,0.16,0.69,010517,,,D*64

$GPVTG,0.69,T,,M,0.16,N,0.30,K,D*33

$GPGGA,132532.000,5233.3298,N,01320.6102,E,2,07,1.38,26.0,M,44.7,M,0000,0000*57

$GPGSA,A,3,14,12,32,29,24,25,31,,,,,,2.68,1.38,2.29*02

$GPRMC,132532.000,A,5233.3298,N,01320.6102,E,0.32,46.66,010517,,,D*5C

$GPVTG,46.66,T,,M,0.32,N,0.59,K,D*07

$GPGGA,132533.000,5233.3299,N,01320.6103,E,2,07,1.25,26.0,M,44.7,M,0000,0000*5A

$GPGSA,A,3,14,12,32,29,24,25,31,,,,,,1.55,1.25,0.92*01

$GPGSV,3,1,12,25,67,283,31,12,63,078,16,02,36,106,14,14,32,293,23*73

$GPGSV,3,2,12,24,32,153,33,32,32,265,20,29,31,211,33,37,29,169,*72

$GPGSV,3,3,12,06,28,055,,31,20,309,27,19,08,046,,03,03,354,*79

$GPRMC,132533.000,A,5233.3299,N,01320.6103,E,0.30,26.01,010517,,,D*58

$GPVTG,26.01,T,,M,0.30,N,0.55,K,D*0E

$GPGGA,132534.000,5233.3300,N,01320.6104,E,2,07,1.25,26.0,M,44.7,M,0000,0000*5B

$GPGSA,A,3,14,12,32,29,24,25,31,,,,,,1.55,1.25,0.92*01

$GPRMC,132534.000,A,5233.3300,N,01320.6104,E,0.17,57.48,010517,,,D*57

$GPVTG,57.48,T,,M,0.17,N,0.32,K,D*01

$GPGGA,132535.000,5233.3300,N,01320.6105,E,2,07,1.25,26.0,M,44.7,M,0000,0000*5B

$GPGSA,A,3,14,12,32,29,24,25,31,,,,,,1.55,1.25,0.92*01

$GPRMC,132535.000,A,5233.3300,N,01320.6105,E,0.22,78.22,010517,,,D*50

$GPVTG,78.22,T,,M,0.22,N,0.40,K,D*03

$GPGGA,132536.000,5233.3300,N,01320.6106,E,2,06,1.77,26.0,M,44.7,M,0000,0000*5D

$GPGSA,A,3,14,32,29,24,25,31,,,,,,,2.00,1.77,0.92*06

$GPRMC,132536.000,A,5233.3300,N,01320.6106,E,0.29,60.79,010517,,,D*5C

$GPVTG,60.79,T,,M,0.29,N,0.54,K,D*0A

$GPGGA,132537.000,5233.3301,N,01320.6107,E,2,07,1.25,26.0,M,44.7,M,0000,0000*5A

$GPGSA,A,3,14,12,32,29,24,25,31,,,,,,1.55,1.25,0.92*01

$GPRMC,132537.000,A,5233.3301,N,01320.6107,E,0.25,79.34,010517,,,D*50

$GPVTG,79.34,T,,M,0.25,N,0.47,K,D*05

$GPGGA,132538.000,5233.3301,N,01320.6108,E,2,06,1.77,26.0,M,44.7,M,0000,0000*5C

$GPGSA,A,3,14,32,29,24,25,31,,,,,,,2.00,1.77,0.92*06

$GPGSV,3,1,12,25,67,283,30,12,63,078,15,02,36,106,17,14,32,293,24*75

$GPGSV,3,2,12,24,32,153,33,32,32,265,22,29,31,211,35,37,29,169,*76

$GPGSV,3,3,12,06,28,055,,31,20,309,28,19,08,046,,03,03,354,*76

$GPRMC,132538.000,A,5233.3301,N,01320.6108,E,0.09,151.65,010517,,,D*61

$GPVTG,151.65,T,,M,0.09,N,0.17,K,D*31

$GPGGA,132539.000,5233.3300,N,01320.6108,E,2,07,1.25,26.0,M,44.7,M,0000,0000*5A

$GPGSA,A,3,14,12,32,29,24,25,31,,,,,,1.55,1.25,0.92*01

$GPRMC,132539.000,A,5233.3300,N,01320.6108,E,0.11,24.98,010517,,,D*59

$GPVTG,24.98,T,,M,0.11,N,0.21,K,D*0C

$GPGGA,132540.000,5233.3301,N,01320.6108,E,2,06,1.77,26.0,M,44.7,M,0000,0000*53

$GPGSA,A,3,14,32,29,24,25,31,,,,,,,1.99,1.77,0.92*05

$GPRMC,132540.000,A,5233.3301,N,01320.6108,E,0.09,15.88,010517,,,D*5C

$GPVTG,15.88,T,,M,0.09,N,0.17,K,D*03

$GPGGA,132541.000,5233.3301,N,01320.6108,E,2,06,1.77,26.0,M,44.7,M,0000,0000*52

$GPGSA,A,3,14,32,29,24,25,31,,,,,,,1.99,1.77,0.92*05

$GPRMC,132541.000,A,5233.3301,N,01320.6108,E,0.09,262.25,010517,,,D*68

$GPVTG,262.25,T,,M,0.09,N,0.17,K,D*36

$GPGGA,132542.000,5233.3301,N,01320.6108,E,2,06,1.77,26.0,M,44.7,M,0000,0000*51

$GPGSA,A,3,14,32,29,24,25,31,,,,,,,1.99,1.77,0.92*05

$GPRMC,132542.000,A,5233.3301,N,01320.6108,E,0.05,350.70,010517,,,D*67

$GPVTG,350.70,T,,M,0.05,N,0.10,K,D*3D

$GPGGA,132543.000,5233.3301,N,01320.6108,E,2,06,1.79,26.0,M,44.7,M,0000,0000*5E

$GPGSA,A,3,14,32,29,24,25,31,,,,,,,2.99,1.79,2.39*0B

$GPGSV,3,1,12,25,67,283,30,12,63,078,15,02,36,106,18,14,32,293,24*7A

$GPGSV,3,2,12,24,32,153,33,32,32,265,23,29,31,211,36,06,28,055,19*71

$GPGSV,3,3,12,39,28,165,,31,20,309,27,19,08,046,,03,03,354,*77

$GPRMC,132543.000,A,5233.3301,N,01320.6108,E,0.06,88.54,010517,,,D*55

$GPVTG,88.54,T,,M,0.06,N,0.11,K,D*0F

$GPGGA,132544.000,5233.3301,N,01320.6108,E,2,07,1.25,26.0,M,44.7,M,0000,0000*51

$GPGSA,A,3,14,12,32,29,24,25,31,,,,,,1.55,1.25,0.92*01

$GPRMC,132544.000,A,5233.3301,N,01320.6108,E,0.09,192.82,010517,,,D*6C

$GPVTG,192.82,T,,M,0.09,N,0.17,K,D*37

$GPGGA,132545.000,5233.3301,N,01320.6108,E,2,07,1.25,26.0,M,44.7,M,0000,0000*50

$GPGSA,A,3,14,12,32,29,24,25,31,,,,,,1.55,1.25,0.92*01

$GPRMC,132545.000,A,5233.3301,N,01320.6108,E,0.06,158.71,010517,,,D*68

$GPVTG,158.71,T,,M,0.06,N,0.11,K,D*34

$GPGGA,132546.000,5233.3301,N,01320.6108,E,2,07,1.25,26.0,M,44.7,M,0000,0000*53

$GPGSA,A,3,14,12,32,29,24,25,31,,,,,,1.55,1.25,0.92*01

$GPRMC,132546.000,A,5233.3301,N,01320.6108,E,0.15,227.77,010517,,,D*64

$GPVTG,227.77,T,,M,0.15,N,0.28,K,D*31

$GPGGA,132547.000,5233.3301,N,01320.6108,E,2,07,1.25,26.0,M,44.7,M,0000,0000*52

$GPGSA,A,3,14,12,32,29,24,25,31,,,,,,1.55,1.25,0.92*01

$GPRMC,132547.000,A,5233.3301,N,01320.6108,E,0.23,233.17,010517,,,D*63

$GPVTG,233.17,T,,M,0.23,N,0.43,K,D*3A

$GPGGA,132548.000,5233.3300,N,01320.6107,E,2,07,1.25,26.0,M,44.7,M,0000,0000*53

$GPGSA,A,3,14,12,32,29,24,25,31,,,,,,1.55,1.25,0.92*01

$GPGSV,3,1,12,25,67,283,28,12,63,078,19,02,36,105,18,14,32,293,25*7D

$GPGSV,3,2,12,24,32,153,33,32,32,265,23,29,31,211,37,06,28,055,20*7A

$GPGSV,3,3,12,39,28,165,,31,20,309,25,19,08,046,,03,03,354,*75

$GPRMC,132548.000,A,5233.3300,N,01320.6107,E,0.31,253.52,010517,,,D*66

$GPVTG,253.52,T,,M,0.31,N,0.58,K,D*34

$GPGGA,132549.000,5233.3300,N,01320.6106,E,2,07,1.25,26.0,M,44.7,M,0000,0000*53

$GPGSA,A,3,14,12,32,29,24,25,31,,,,,,1.55,1.25,0.92*01

$GPRMC,132549.000,A,5233.3300,N,01320.6106,E,0.39,268.31,010517,,,D*63

$GPVTG,268.31,T,,M,0.39,N,0.72,K,D*39

$GPGGA,132550.000,5233.3300,N,01320.6104,E,2,07,1.25,26.1,M,44.7,M,0000,0000*58

$GPGSA,A,3,14,12,32,29,24,25,31,,,,,,1.55,1.25,0.92*01

$GPRMC,132550.000,A,5233.3300,N,01320.6104,E,0.22,302.64,010517,,,D*6E

$GPVTG,302.64,T,,M,0.22,N,0.41,K,D*3E

$GPGGA,132551.000,5233.3301,N,01320.6103,E,2,07,1.25,26.1,M,44.7,M,0000,0000*5F

$GPGSA,A,3,14,12,32,29,24,25,31,,,,,,1.55,1.25,0.92*01

$GPRMC,132551.000,A,5233.3301,N,01320.6103,E,0.27,279.93,010517,,,D*69

$GPVTG,279.93,T,,M,0.27,N,0.51,K,D*3F

$GPGGA,132552.000,5233.3301,N,01320.6102,E,2,07,1.25,26.1,M,44.7,M,0000,0000*5D

$GPGSA,A,3,14,12,32,29,24,25,31,,,,,,1.55,1.25,0.92*01

$GPRMC,132552.000,A,5233.3301,N,01320.6102,E,0.19,290.18,010517,,,D*62

$GPVTG,290.18,T,,M,0.19,N,0.34,K,D*35

$GPGGA,132553.000,5233.3301,N,01320.6101,E,2,07,1.25,26.1,M,44.7,M,0000,0000*5F

$GPGSA,A,3,14,12,32,29,24,25,31,,,,,,1.55,1.25,0.92*01

$GPGSV,3,1,12,25,67,283,29,12,63,078,20,02,36,105,16,14,32,293,24*79

$GPGSV,3,2,12,24,32,153,32,32,32,265,23,29,31,211,37,06,28,055,20*7B

$GPGSV,3,3,12,31,20,309,25,40,14,123,,19,08,046,,03,03,354,*76

$GPRMC,132553.000,A,5233.3301,N,01320.6101,E,0.27,326.79,010517,,,D*66

$GPVTG,326.79,T,,M,0.27,N,0.50,K,D*31

$GPGGA,132554.000,5233.3302,N,01320.6101,E,2,07,1.25,26.1,M,44.7,M,0000,0000*5B

$GPGSA,A,3,14,12,32,29,24,25,31,,,,,,1.55,1.25,0.92*01

$GPRMC,132554.000,A,5233.3302,N,01320.6101,E,0.15,328.27,010517,,,D*66

$GPVTG,328.27,T,,M,0.15,N,0.28,K,D*3A

$GPGGA,132555.000,5233.3302,N,01320.6100,E,2,07,1.25,26.1,M,44.7,M,0000,0000*5B

$GPGSA,A,3,14,12,32,29,24,25,31,,,,,,1.55,1.25,0.92*01

$GPRMC,132555.000,A,5233.3302,N,01320.6100,E,0.25,336.57,010517,,,D*6D

$GPVTG,336.57,T,,M,0.25,N,0.46,K,D*39

$GPGGA,132556.000,5233.3303,N,01320.6100,E,2,07,1.25,26.1,M,44.7,M,0000,0000*59

$GPGSA,A,3,14,12,32,29,24,25,31,,,,,,1.55,1.25,0.92*01

$GPRMC,132556.000,A,5233.3303,N,01320.6100,E,0.30,346.94,010517,,,D*63

$GPVTG,346.94,T,,M,0.30,N,0.56,K,D*34

$GPGGA,132557.000,5233.3304,N,01320.6100,E,2,07,1.38,26.1,M,44.7,M,0000,0000*53

$GPGSA,A,3,14,12,32,29,24,25,31,,,,,,2.68,1.38,2.30*0A

$GPRMC,132557.000,A,5233.3304,N,01320.6100,E,0.43,356.80,010517,,,D*65

$GPVTG,356.80,T,,M,0.43,N,0.80,K,D*3F

$GPGGA,132558.000,5233.3305,N,01320.6100,E,2,07,1.38,26.1,M,44.7,M,0000,0000*5D

$GPGSA,A,3,14,12,32,29,24,25,31,,,,,,2.68,1.38,2.30*0A

$GPGSV,3,1,12,25,67,283,31,12,63,078,19,02,36,105,15,14,32,292,23*7F

$GPGSV,3,2,12,24,32,153,30,32,32,265,25,29,31,211,37,06,28,055,19*75

$GPGSV,3,3,12,31,20,309,22,40,14,123,,19,08,046,,03,03,354,*71

$GPRMC,132558.000,A,5233.3305,N,01320.6100,E,0.29,348.35,010517,,,D*66

$GPVTG,348.35,T,,M,0.29,N,0.54,K,D*3B

$GPGGA,132559.000,5233.3306,N,01320.6099,E,2,07,1.38,26.1,M,44.7,M,0000,0000*5E

$GPGSA,A,3,14,12,32,29,24,25,31,,,,,,2.68,1.38,2.30*0A

$GPRMC,132559.000,A,5233.3306,N,01320.6099,E,0.14,345.78,010517,,,D*6F

$GPVTG,345.78,T,,M,0.14,N,0.27,K,D*35

$GPGGA,132600.000,5233.3306,N,01320.6099,E,2,07,1.38,26.1,M,44.7,M,0000,0000*51

$GPGSA,A,3,14,12,32,29,24,25,31,,,,,,2.68,1.38,2.30*0A

$GPRMC,132600.000,A,5233.3306,N,01320.6099,E,0.08,332.95,010517,,,D*6E

$GPVTG,332.95,T,,M,0.08,N,0.14,K,D*3B

$GPGGA,132601.000,5233.3306,N,01320.6099,E,2,06,1.77,26.1,M,44.7,M,0000,0000*5A

$GPGSA,A,3,14,32,29,24,25,31,,,,,,,1.99,1.77,0.92*05

$GPRMC,132601.000,A,5233.3306,N,01320.6099,E,0.07,155.64,010517,,,D*6D

$GPVTG,155.64,T,,M,0.07,N,0.13,K,D*3E

$GPGGA,132602.000,5233.3306,N,01320.6099,E,2,07,1.25,26.1,M,44.7,M,0000,0000*5F

$GPGSA,A,3,14,12,32,29,24,25,31,,,,,,1.55,1.25,0.92*01

$GPRMC,132602.000,A,5233.3306,N,01320.6099,E,0.13,11.00,010517,,,D*58

$GPVTG,11.00,T,,M,0.13,N,0.24,K,D*0C

$GPGGA,132603.000,5233.3306,N,01320.6099,E,2,07,1.38,26.1,M,44.7,M,0000,0000*52

$GPGSA,A,3,14,12,32,29,24,25,31,,,,,,2.68,1.38,2.30*0A

$GPGSV,3,1,12,25,67,283,34,12,63,078,18,02,36,105,15,14,32,292,22*7A

$GPGSV,3,2,12,24,32,153,30,32,32,265,26,29,31,211,37,06,28,055,18*77

$GPGSV,3,3,12,31,20,309,20,44,13,121,,19,08,046,,03,03,354,*72

$GPRMC,132603.000,A,5233.3306,N,01320.6099,E,0.08,304.77,010517,,,D*64

$GPVTG,304.77,T,,M,0.08,N,0.15,K,D*33

$GPGGA,132604.000,5233.3307,N,01320.6099,E,2,06,1.77,26.1,M,44.7,M,0000,0000*5E

$GPGSA,A,3,14,32,29,24,25,31,,,,,,,1.99,1.77,0.92*05

$GPRMC,132604.000,A,5233.3307,N,01320.6099,E,0.12,187.43,010517,,,D*67

$GPVTG,187.43,T,,M,0.12,N,0.22,K,D*32

$GPGGA,132605.000,5233.3306,N,01320.6099,E,2,07,1.25,26.1,M,44.7,M,0000,0000*58

$GPGSA,A,3,14,12,32,29,24,25,31,,,,,,1.55,1.25,0.92*01

$GPRMC,132605.000,A,5233.3306,N,01320.6099,E,0.21,219.50,010517,,,D*61

$GPVTG,219.50,T,,M,0.21,N,0.38,K,D*3F

$GPGGA,132606.000,5233.3306,N,01320.6098,E,2,07,1.25,26.1,M,44.7,M,0000,0000*5A

$GPGSA,A,3,14,12,32,29,24,25,31,,,,,,1.55,1.25,0.92*01

$GPRMC,132606.000,A,5233.3306,N,01320.6098,E,0.21,212.40,010517,,,D*69

$GPVTG,212.40,T,,M,0.21,N,0.39,K,D*34

$GPGGA,132607.000,5233.3305,N,01320.6098,E,2,07,1.25,26.1,M,44.7,M,0000,0000*58

$GPGSA,A,3,14,12,32,29,24,25,31,,,,,,1.55,1.25,0.92*01

$GPRMC,132607.000,A,5233.3305,N,01320.6098,E,0.26,227.47,010517,,,D*6D

$GPVTG,227.47,T,,M,0.26,N,0.49,K,D*35

$GPGGA,132608.000,5233.3305,N,01320.6097,E,2,07,1.25,26.1,M,44.7,M,0000,0000*58

$GPGSA,A,3,14,12,32,29,24,25,31,,,,,,1.55,1.25,0.92*01

$GPGSV,3,1,12,25,68,283,35,12,63,078,18,02,36,105,16,14,32,292,24*71

$GPGSV,3,2,12,24,32,153,32,32,32,265,26,29,31,211,37,06,28,055,18*75

$GPGSV,3,3,12,31,20,309,22,44,13,121,,19,08,046,,03,03,354,*70

$GPRMC,132608.000,A,5233.3305,N,01320.6097,E,0.22,225.24,010517,,,D*6E

$GPVTG,225.24,T,,M,0.22,N,0.40,K,D*3F

$GPGGA,132609.000,5233.3304,N,01320.6096,E,2,07,1.25,26.1,M,44.7,M,0000,0000*59

$GPGSA,A,3,14,12,32,29,24,25,31,,,,,,1.55,1.25,0.92*01

$GPRMC,132609.000,A,5233.3304,N,01320.6096,E,0.36,241.85,010517,,,D*63

$GPVTG,241.85,T,,M,0.36,N,0.66,K,D*37

$GPGGA,132610.000,5233.3304,N,01320.6095,E,2,07,1.25,26.0,M,44.7,M,0000,0000*53

$GPGSA,A,3,14,12,32,29,24,25,31,,,,,,1.55,1.25,0.92*01

$GPRMC,132610.000,A,5233.3304,N,01320.6095,E,0.37,243.25,010517,,,D*61

$GPVTG,243.25,T,,M,0.37,N,0.68,K,D*30

$GPGGA,132611.000,5233.3303,N,01320.6093,E,2,07,1.25,26.0,M,44.7,M,0000,0000*53

$GPGSA,A,3,14,12,32,29,24,25,31,,,,,,1.55,1.25,0.92*01

$GPRMC,132611.000,A,5233.3303,N,01320.6093,E,0.46,246.86,010517,,,D*6B

$GPVTG,246.86,T,,M,0.46,N,0.85,K,D*39

$GPGGA,132612.000,5233.3302,N,01320.6091,E,2,07,1.25,26.0,M,44.7,M,0000,0000*53

$GPGSA,A,3,14,12,32,29,24,25,31,,,,,,1.55,1.25,0.92*01

$GPRMC,132612.000,A,5233.3302,N,01320.6091,E,0.21,247.04,010517,,,D*61

$GPVTG,247.04,T,,M,0.21,N,0.39,K,D*34

$GPGGA,132613.000,5233.3302,N,01320.6090,E,2,07,1.25,26.0,M,44.7,M,0000,0000*53

$GPGSA,A,3,14,12,32,29,24,25,31,,,,,,1.55,1.25,0.92*01

$GPGSV,3,1,12,25,68,283,35,12,63,078,18,02,36,105,19,14,32,292,23*79

$GPGSV,3,2,12,24,32,153,31,32,32,265,29,29,31,211,37,06,28,055,18*79

$GPGSV,3,3,12,33,24,214,,31,20,309,25,19,08,046,,03,03,354,*76

$GPRMC,132613.000,A,5233.3302,N,01320.6090,E,0.32,215.17,010517,,,D*66

$GPVTG,215.17,T,,M,0.32,N,0.59,K,D*35

$GPGGA,132614.000,5233.3301,N,01320.6090,E,2,06,1.77,26.0,M,44.7,M,0000,0000*51

$GPGSA,A,3,14,32,29,24,25,31,,,,,,,1.99,1.77,0.92*05

$GPRMC,132614.000,A,5233.3301,N,01320.6090,E,0.32,223.65,010517,,,D*62

$GPVTG,223.65,T,,M,0.32,N,0.59,K,D*35

$GPGGA,132615.000,5233.3301,N,01320.6089,E,2,06,1.77,26.0,M,44.7,M,0000,0000*58

$GPGSA,A,3,14,32,29,24,25,31,,,,,,,1.99,1.77,0.92*05

$GPRMC,132615.000,A,5233.3301,N,01320.6089,E,0.23,176.16,010517,,,D*6C

$GPVTG,176.16,T,,M,0.23,N,0.43,K,D*39

$GPGGA,132616.000,5233.3300,N,01320.6089,E,2,06,1.77,26.0,M,44.7,M,0000,0000*5A

$GPGSA,A,3,14,32,29,24,25,31,,,,,,,1.99,1.77,0.92*05

$GPRMC,132616.000,A,5233.3300,N,01320.6089,E,0.22,159.38,010517,,,D*6E

$GPVTG,159.38,T,,M,0.22,N,0.41,K,D*3B

$GPGGA,132617.000,5233.3299,N,01320.6089,E,2,06,1.77,26.0,M,44.7,M,0000,0000*5A

$GPGSA,A,3,14,32,29,24,25,31,,,,,,,1.99,1.77,0.92*05

$GPRMC,132617.000,A,5233.3299,N,01320.6089,E,0.15,161.27,010517,,,D*6F

$GPVTG,161.27,T,,M,0.15,N,0.28,K,D*35

$GPGGA,132618.000,5233.3299,N,01320.6089,E,2,06,1.77,26.0,M,44.7,M,0000,0000*55

$GPGSA,A,3,14,32,29,24,25,31,,,,,,,1.99,1.77,0.92*05

$GPGSV,3,1,12,25,68,283,33,12,63,078,16,02,36,105,17,14,32,292,23*7F

$GPGSV,3,2,12,24,32,153,31,32,32,264,30,29,31,211,37,06,28,055,16*7E

$GPGSV,3,3,12,33,24,214,,31,20,309,26,19,08,046,,03,03,354,*75

$GPRMC,132618.000,A,5233.3299,N,01320.6089,E,0.07,208.62,010517,,,D*6E

$GPVTG,208.62,T,,M,0.07,N,0.14,K,D*34

$GPGGA,132619.000,5233.3299,N,01320.6089,E,2,06,1.77,26.0,M,44.7,M,0000,0000*54

$GPGSA,A,3,14,32,29,24,25,31,,,,,,,1.99,1.77,0.92*05

$GPRMC,132619.000,A,5233.3299,N,01320.6089,E,0.06,187.50,010517,,,D*6B

$GPVTG,187.50,T,,M,0.06,N,0.11,K,D*35

$GPGGA,132620.000,5233.3299,N,01320.6089,E,2,06,1.77,26.0,M,44.7,M,0000,0000*5E

$GPGSA,A,3,14,32,29,24,25,31,,,,,,,1.99,1.77,0.92*05

$GPRMC,132620.000,A,5233.3299,N,01320.6089,E,0.07,183.16,010517,,,D*66

$GPVTG,183.16,T,,M,0.07,N,0.14,K,D*37

$GPGGA,132621.000,5233.3299,N,01320.6089,E,2,06,1.77,26.0,M,44.7,M,0000,0000*5F

$GPGSA,A,3,14,32,29,24,25,31,,,,,,,1.99,1.77,0.92*05

$GPRMC,132621.000,A,5233.3299,N,01320.6089,E,0.04,17.75,010517,,,D*5D

$GPVTG,17.75,T,,M,0.04,N,0.07,K,D*0F

$GPGGA,132622.000,5233.3299,N,01320.6089,E,2,06,1.77,26.0,M,44.7,M,0000,0000*5C

$GPGSA,A,3,14,32,29,24,25,31,,,,,,,1.99,1.77,0.92*05

$GPRMC,132622.000,A,5233.3299,N,01320.6089,E,0.27,303.43,010517,,,D*6C

$GPVTG,303.43,T,,M,0.27,N,0.49,K,D*37

$GPGGA,132623.000,5233.3299,N,01320.6088,E,2,06,1.77,26.0,M,44.7,M,0000,0000*5C

$GPGSA,A,3,14,32,29,24,25,31,,,,,,,1.99,1.77,0.92*05

$GPGSV,3,1,12,25,68,283,33,12,63,078,16,02,36,105,14,14,32,292,24*7B

$GPGSV,3,2,12,24,32,153,33,32,32,264,31,29,31,211,37,06,27,054,15*70

$GPGSV,3,3,12,33,24,214,,31,20,309,25,19,08,046,,03,03,354,*76

$GPRMC,132623.000,A,5233.3299,N,01320.6088,E,0.18,294.38,010517,,,D*63

$GPVTG,294.38,T,,M,0.18,N,0.34,K,D*32

$GPGGA,132624.000,5233.3299,N,01320.6087,E,2,07,1.25,26.0,M,44.7,M,0000,0000*52

$GPGSA,A,3,14,12,32,29,24,25,31,,,,,,1.55,1.25,0.92*01

$GPRMC,132624.000,A,5233.3299,N,01320.6087,E,0.26,281.69,010517,,,D*66

$GPVTG,281.69,T,,M,0.26,N,0.49,K,D*35

$GPGGA,132625.000,5233.3299,N,01320.6086,E,2,06,1.77,26.0,M,44.7,M,0000,0000*54

$GPGSA,A,3,14,32,29,24,25,31,,,,,,,1.99,1.77,0.92*05

$GPRMC,132625.000,A,5233.3299,N,01320.6086,E,0.19,265.66,010517,,,D*6F

$GPVTG,265.66,T,,M,0.19,N,0.36,K,D*34

$GPGGA,132626.000,5233.3299,N,01320.6085,E,2,06,1.77,26.0,M,44.7,M,0000,0000*54

$GPGSA,A,3,14,32,29,24,25,31,,,,,,,1.99,1.77,0.92*05

$GPRMC,132626.000,A,5233.3299,N,01320.6085,E,0.20,245.76,010517,,,D*66

$GPVTG,245.76,T,,M,0.20,N,0.38,K,D*33

$GPGGA,132627.000,5233.3299,N,01320.6085,E,2,06,1.77,26.0,M,44.7,M,0000,0000*55

$GPGSA,A,3,14,32,29,24,25,31,,,,,,,1.99,1.77,0.92*05

$GPRMC,132627.000,A,5233.3299,N,01320.6085,E,0.21,231.78,010517,,,D*6B

$GPVTG,231.78,T,,M,0.21,N,0.39,K,D*3E

$GPGGA,132628.000,5233.3299,N,01320.6084,E,2,06,1.77,26.0,M,44.7,M,0000,0000*5B

$GPGSA,A,3,14,32,29,24,25,31,,,,,,,1.99,1.77,0.92*05

$GPGSV,3,1,12,25,68,283,30,12,63,078,17,02,36,105,14,14,32,292,24*79

$GPGSV,3,2,12,24,32,153,33,32,32,264,31,29,31,211,37,06,27,054,16*73

$GPGSV,3,3,12,33,24,214,,31,20,309,25,19,08,046,,03,03,354,*76

$GPRMC,132628.000,A,5233.3299,N,01320.6084,E,0.09,214.62,010517,,,D*63

$GPVTG,214.62,T,,M,0.09,N,0.17,K,D*34

$GPGGA,132629.000,5233.3299,N,01320.6084,E,2,06,1.77,26.0,M,44.7,M,0000,0000*5A

$GPGSA,A,3,14,32,29,24,25,31,,,,,,,1.99,1.77,0.92*05

$GPRMC,132629.000,A,5233.3299,N,01320.6084,E,0.05,170.62,010517,,,D*6F

$GPVTG,170.62,T,,M,0.05,N,0.09,K,D*36

$GPGGA,132630.000,5233.3299,N,01320.6084,E,2,06,1.76,26.0,M,44.7,M,0000,0000*53

$GPGSA,A,3,14,32,29,24,25,31,,,,,,,1.99,1.76,0.92*04

$GPRMC,132630.000,A,5233.3299,N,01320.6084,E,0.03,224.06,010517,,,D*61

$GPVTG,224.06,T,,M,0.03,N,0.06,K,D*3F

$GPGGA,132631.000,5233.3299,N,01320.6084,E,2,06,1.77,26.0,M,44.7,M,0000,0000*53

$GPGSA,A,3,14,32,29,24,25,31,,,,,,,1.99,1.77,0.92*05

$GPRMC,132631.000,A,5233.3299,N,01320.6084,E,0.19,29.77,010517,,,D*52

$GPVTG,29.77,T,,M,0.19,N,0.36,K,D*0E

$GPGGA,132632.000,5233.3299,N,01320.6084,E,2,06,1.76,26.0,M,44.7,M,0000,0000*51

$GPGSA,A,3,14,32,29,24,25,31,,,,,,,1.99,1.76,0.92*04

$GPRMC,132632.000,A,5233.3299,N,01320.6084,E,0.17,33.72,010517,,,D*51

$GPVTG,33.72,T,,M,0.17,N,0.31,K,D*09

$GPGGA,132633.000,5233.3299,N,01320.6085,E,2,06,1.77,26.0,M,44.7,M,0000,0000*50

$GPGSA,A,3,14,32,29,24,25,31,,,,,,,1.99,1.77,0.92*05

$GPGSV,3,1,12,25,68,283,30,12,63,078,16,02,36,105,14,14,32,292,24*78

$GPGSV,3,2,12,24,32,153,33,32,32,264,31,29,31,211,37,37,29,169,*77

$GPGSV,3,3,12,06,27,054,16,31,20,309,24,19,08,046,,03,03,354,*73

$GPRMC,132633.000,A,5233.3299,N,01320.6085,E,0.10,217.94,010517,,,D*6A

$GPVTG,217.94,T,,M,0.10,N,0.18,K,D*39

$GPGGA,132634.000,5233.3299,N,01320.6084,E,2,06,1.77,26.0,M,44.7,M,0000,0000*56

$GPGSA,A,3,14,32,29,24,25,31,,,,,,,1.99,1.77,0.92*05

$GPRMC,132634.000,A,5233.3299,N,01320.6084,E,0.01,262.68,010517,,,D*6D

$GPVTG,262.68,T,,M,0.01,N,0.01,K,D*30

$GPGGA,132635.000,5233.3299,N,01320.6084,E,2,07,1.25,26.0,M,44.7,M,0000,0000*51

$GPGSA,A,3,14,12,32,29,24,25,31,,,,,,1.55,1.25,0.92*01

$GPRMC,132635.000,A,5233.3299,N,01320.6084,E,0.05,276.09,010517,,,D*6A

$GPVTG,276.09,T,,M,0.05,N,0.09,K,D*3E

$GPGGA,132636.000,5233.3299,N,01320.6084,E,2,06,1.76,26.1,M,44.7,M,0000,0000*54

$GPGSA,A,3,14,32,29,24,25,31,,,,,,,1.99,1.76,0.92*04

$GPRMC,132636.000,A,5233.3299,N,01320.6084,E,0.12,235.01,010517,,,D*60

$GPVTG,235.01,T,,M,0.12,N,0.22,K,D*3E

$GPGGA,132637.000,5233.3299,N,01320.6084,E,2,06,1.76,26.1,M,44.7,M,0000,0000*55

$GPGSA,A,3,14,32,29,24,25,31,,,,,,,1.99,1.76,0.92*04

$GPRMC,132637.000,A,5233.3299,N,01320.6084,E,0.07,224.15,010517,,,D*60

$GPVTG,224.15,T,,M,0.07,N,0.13,K,D*3D

$GPGGA,132638.000,5233.3299,N,01320.6084,E,2,07,1.25,26.1,M,44.7,M,0000,0000*5D

$GPGSA,A,3,14,12,32,29,24,25,31,,,,,,1.55,1.25,0.92*01

$GPGSV,3,1,12,25,68,283,30,12,63,078,17,02,36,105,13,14,32,292,23*79

$GPGSV,3,2,12,24,32,153,32,32,32,264,30,29,31,211,37,39,28,165,*74

$GPGSV,3,3,12,06,27,054,18,31,20,309,24,19,08,046,,03,03,354,*7D

$GPRMC,132638.000,A,5233.3299,N,01320.6084,E,0.14,267.92,010517,,,D*65

$GPVTG,267.92,T,,M,0.14,N,0.26,K,D*31

$GPGGA,132639.000,5233.3299,N,01320.6083,E,2,07,1.25,26.1,M,44.7,M,0000,0000*5B

$GPGSA,A,3,14,12,32,29,24,25,31,,,,,,1.55,1.25,0.92*01

$GPRMC,132639.000,A,5233.3299,N,01320.6083,E,0.19,287.92,010517,,,D*60

$GPVTG,287.92,T,,M,0.19,N,0.35,K,D*30

$GPGGA,132640.000,5233.3299,N,01320.6082,E,2,07,1.25,26.1,M,44.7,M,0000,0000*54

$GPGSA,A,3,14,12,32,29,24,25,31,,,,,,1.55,1.25,0.92*01

$GPRMC,132640.000,A,5233.3299,N,01320.6082,E,0.19,322.58,010517,,,D*67

$GPVTG,322.58,T,,M,0.19,N,0.36,K,D*3B

$GPGGA,132641.000,5233.3300,N,01320.6082,E,2,07,1.25,26.1,M,44.7,M,0000,0000*54

$GPGSA,A,3,14,12,32,29,24,25,31,,,,,,1.55,1.25,0.92*01

$GPRMC,132641.000,A,5233.3300,N,01320.6082,E,0.25,288.44,010517,,,D*64

$GPVTG,288.44,T,,M,0.25,N,0.46,K,D*3F

$GPGGA,132642.000,5233.3300,N,01320.6081,E,2,07,1.25,26.0,M,44.7,M,0000,0000*55

$GPGSA,A,3,14,12,32,29,24,25,31,,,,,,1.55,1.25,0.92*01

$GPRMC,132642.000,A,5233.3300,N,01320.6081,E,0.06,234.77,010517,,,D*62

$GPVTG,234.77,T,,M,0.06,N,0.12,K,D*38

$GPGGA,132643.000,5233.3300,N,01320.6081,E,2,07,1.25,26.0,M,44.7,M,0000,0000*54

$GPGSA,A,3,14,12,32,29,24,25,31,,,,,,1.55,1.25,0.92*01

$GPGSV,3,1,12,25,68,283,31,12,63,078,19,02,36,105,16,14,32,292,22*72

$GPGSV,3,2,12,24,32,153,31,32,32,264,30,29,31,211,37,39,28,165,*77

$GPGSV,3,3,12,06,27,054,20,31,20,309,23,19,08,046,,03,03,354,*71

$GPRMC,132643.000,A,5233.3300,N,01320.6081,E,0.17,161.72,010517,,,D*65

$GPVTG,161.72,T,,M,0.17,N,0.31,K,D*3F

$GPGGA,132644.000,5233.3299,N,01320.6081,E,2,07,1.25,26.0,M,44.7,M,0000,0000*52

$GPGSA,A,3,14,12,32,29,24,25,31,,,,,,1.55,1.25,0.92*01

$GPRMC,132644.000,A,5233.3299,N,01320.6081,E,0.06,234.57,010517,,,D*67

$GPVTG,234.57,T,,M,0.06,N,0.12,K,D*3A

$GPGGA,132645.000,5233.3299,N,01320.6081,E,2,07,1.25,26.0,M,44.7,M,0000,0000*53

$GPGSA,A,3,14,12,32,29,24,25,31,,,,,,1.55,1.25,0.92*01

$GPRMC,132645.000,A,5233.3299,N,01320.6081,E,0.10,263.55,010517,,,D*61

$GPVTG,263.55,T,,M,0.10,N,0.18,K,D*37

$GPGGA,132646.000,5233.3299,N,01320.6080,E,2,07,1.25,26.0,M,44.7,M,0000,0000*51

$GPGSA,A,3,14,12,32,29,24,25,31,,,,,,1.55,1.25,0.92*01

$GPRMC,132646.000,A,5233.3299,N,01320.6080,E,0.04,147.93,010517,,,D*69

$GPVTG,147.93,T,,M,0.04,N,0.08,K,D*3C

$GPGGA,132647.000,5233.3299,N,01320.6080,E,2,07,1.25,26.0,M,44.7,M,0000,0000*50

$GPGSA,A,3,14,12,32,29,24,25,31,,,,,,1.55,1.25,0.92*01

$GPRMC,132647.000,A,5233.3299,N,01320.6080,E,0.07,80.54,010517,,,D*5A

$GPVTG,80.54,T,,M,0.07,N,0.12,K,D*05

$GPGGA,132648.000,5233.3299,N,01320.6080,E,2,07,1.25,26.0,M,44.7,M,0000,0000*5F

$GPGSA,A,3,14,12,32,29,24,25,31,,,,,,1.55,1.25,0.92*01

$GPGSV,3,1,12,25,68,283,31,12,63,078,20,02,36,105,17,14,32,292,19*71

$GPGSV,3,2,12,24,32,153,30,32,32,264,29,29,31,211,35,06,27,054,20*7E

$GPGSV,3,3,12,31,21,309,22,40,14,123,,19,08,046,,03,03,354,*70

$GPRMC,132648.000,A,5233.3299,N,01320.6080,E,0.05,266.27,010517,,,D*69

$GPVTG,266.27,T,,M,0.05,N,0.10,K,D*3B

$GPGGA,132649.000,5233.3299,N,01320.6080,E,2,07,1.25,26.0,M,44.7,M,0000,0000*5E

$GPGSA,A,3,14,12,32,29,24,25,31,,,,,,1.55,1.25,0.92*01

$GPRMC,132649.000,A,5233.3299,N,01320.6080,E,0.05,28.04,010517,,,D*51

$GPVTG,28.04,T,,M,0.05,N,0.10,K,D*02

$GPGGA,132650.000,5233.3299,N,01320.6080,E,2,07,1.25,26.0,M,44.7,M,0000,0000*56

$GPGSA,A,3,14,12,32,29,24,25,31,,,,,,1.55,1.25,0.92*01

$GPRMC,132650.000,A,5233.3299,N,01320.6080,E,0.07,258.35,010517,,,D*6C

$GPVTG,258.35,T,,M,0.07,N,0.14,K,D*33

$GPGGA,132651.000,5233.3299,N,01320.6080,E,2,07,1.25,26.0,M,44.7,M,0000,0000*57

$GPGSA,A,3,14,12,32,29,24,25,31,,,,,,1.55,1.25,0.92*01

$GPRMC,132651.000,A,5233.3299,N,01320.6080,E,0.21,240.77,010517,,,D*66

$GPVTG,240.77,T,,M,0.21,N,0.39,K,D*37

$GPGGA,132652.000,5233.3299,N,01320.6079,E,2,07,1.25,26.0,M,44.7,M,0000,0000*52

$GPGSA,A,3,14,12,32,29,24,25,31,,,,,,1.55,1.25,0.92*01

$GPRMC,132652.000,A,5233.3299,N,01320.6079,E,0.28,259.11,010517,,,D*62

$GPVTG,259.11,T,,M,0.28,N,0.53,K,D*3A

$GPGGA,132653.000,5233.3298,N,01320.6078,E,2,07,1.25,26.0,M,44.7,M,0000,0000*53

$GPGSA,A,3,14,12,32,29,24,25,31,,,,,,1.55,1.25,0.92*01

$GPGSV,3,1,12,25,68,283,31,12,63,078,19,02,36,105,19,14,32,292,18*74

$GPGSV,3,2,12,24,32,153,29,29,31,211,34,32,31,264,29,06,27,054,21*75

$GPGSV,3,3,12,31,21,309,23,40,14,123,,19,08,046,,03,03,354,*71

$GPRMC,132653.000,A,5233.3298,N,01320.6078,E,0.23,263.07,010517,,,D*66

$GPVTG,263.07,T,,M,0.23,N,0.43,K,D*3E

$GPGGA,132654.000,5233.3298,N,01320.6077,E,2,07,1.25,26.0,M,44.7,M,0000,0000*5B

$GPGSA,A,3,14,12,32,29,24,25,31,,,,,,1.55,1.25,0.92*01

$GPRMC,132654.000,A,5233.3298,N,01320.6077,E,0.26,246.44,010517,,,D*6B

$GPVTG,246.44,T,,M,0.26,N,0.48,K,D*30

$GPGGA,132655.000,5233.3298,N,01320.6076,E,2,07,1.25,26.0,M,44.7,M,0000,0000*5B

$GPGSA,A,3,14,12,32,29,24,25,31,,,,,,1.55,1.25,0.92*01

$GPRMC,132655.000,A,5233.3298,N,01320.6076,E,0.10,240.93,010517,,,D*62

$GPVTG,240.93,T,,M,0.10,N,0.18,K,D*3C

$GPGGA,132656.000,5233.3298,N,01320.6075,E,2,07,1.25,26.0,M,44.7,M,0000,0000*5B

$GPGSA,A,3,14,12,32,29,24,25,31,,,,,,1.55,1.25,0.92*01

$GPRMC,132656.000,A,5233.3298,N,01320.6075,E,0.14,322.34,010517,,,D*6E

$GPVTG,322.34,T,,M,0.14,N,0.26,K,D*3D

$GPGGA,132657.000,5233.3298,N,01320.6075,E,2,07,1.25,26.0,M,44.7,M,0000,0000*5A

$GPGSA,A,3,14,12,32,29,24,25,31,,,,,,1.55,1.25,0.92*01

$GPRMC,132657.000,A,5233.3298,N,01320.6075,E,0.15,329.03,010517,,,D*61

$GPVTG,329.03,T,,M,0.15,N,0.27,K,D*32

$GPGGA,132658.000,5233.3299,N,01320.6075,E,2,07,1.25,26.0,M,44.7,M,0000,0000*54

$GPGSA,A,3,14,12,32,29,24,25,31,,,,,,1.55,1.25,0.92*01

$GPGSV,3,1,12,25,68,283,31,12,63,078,18,02,37,105,19,14,32,292,18*74

$GPGSV,3,2,12,24,32,153,28,29,31,211,35,32,31,264,28,06,27,054,22*77

$GPGSV,3,3,12,31,21,309,21,44,13,121,,19,08,046,,03,03,354,*72

$GPRMC,132658.000,A,5233.3299,N,01320.6075,E,0.33,323.24,010517,,,D*64

$GPVTG,323.24,T,,M,0.33,N,0.62,K,D*38

$GPGGA,132659.000,5233.3299,N,01320.6074,E,2,07,1.25,26.0,M,44.7,M,0000,0000*54

$GPGSA,A,3,14,12,32,29,24,25,31,,,,,,1.55,1.25,0.92*01

$GPRMC,132659.000,A,5233.3299,N,01320.6074,E,0.34,309.19,010517,,,D*65

$GPVTG,309.19,T,,M,0.34,N,0.64,K,D*3F

$GPGGA,132700.000,5233.3300,N,01320.6072,E,2,07,1.25,26.0,M,44.7,M,0000,0000*5E

$GPGSA,A,3,14,12,32,29,24,25,31,,,,,,1.55,1.25,0.92*01

$GPRMC,132700.000,A,5233.3300,N,01320.6072,E,0.34,313.74,010517,,,D*6F

$GPVTG,313.74,T,,M,0.34,N,0.64,K,D*3F

$GPGGA,132701.000,5233.3301,N,01320.6071,E,2,07,1.25,26.0,M,44.7,M,0000,0000*5D

$GPGSA,A,3,14,12,32,29,24,25,31,,,,,,1.55,1.25,0.92*01

$GPRMC,132701.000,A,5233.3301,N,01320.6071,E,0.28,309.46,010517,,,D*6B

$GPVTG,309.46,T,,M,0.28,N,0.52,K,D*3D

$GPGGA,132702.000,5233.3301,N,01320.6070,E,2,07,1.25,26.0,M,44.7,M,0000,0000*5F

$GPGSA,A,3,14,12,32,29,24,25,31,,,,,,1.55,1.25,0.92*01

$GPRMC,132702.000,A,5233.3301,N,01320.6070,E,0.27,295.84,010517,,,D*6C

$GPVTG,295.84,T,,M,0.27,N,0.50,K,D*3A

$GPGGA,132703.000,5233.3302,N,01320.6069,E,2,07,1.25,26.0,M,44.7,M,0000,0000*55

$GPGSA,A,3,14,12,32,29,24,25,31,,,,,,1.55,1.25,0.92*01

$GPGSV,3,1,12,25,68,283,30,12,63,078,18,02,37,105,16,14,32,292,17*75

$GPGSV,3,2,12,24,32,153,25,29,31,211,36,32,31,264,24,06,27,054,23*74

$GPGSV,3,3,12,31,21,309,23,44,13,121,,19,08,046,,03,03,354,*70

$GPRMC,132703.000,A,5233.3302,N,01320.6069,E,0.30,297.55,010517,,,D*6E

$GPVTG,297.55,T,,M,0.30,N,0.55,K,D*37

$GPGGA,132704.000,5233.3302,N,01320.6068,E,2,07,1.25,26.0,M,44.7,M,0000,0000*53

$GPGSA,A,3,14,12,32,29,24,25,31,,,,,,1.55,1.25,0.92*01

$GPRMC,132704.000,A,5233.3302,N,01320.6068,E,0.30,266.35,010517,,,D*60

$GPVTG,266.35,T,,M,0.30,N,0.56,K,D*3C

$GPGGA,132705.000,5233.3302,N,01320.6067,E,2,07,1.25,26.0,M,44.7,M,0000,0000*5D

$GPGSA,A,3,14,12,32,29,24,25,31,,,,,,1.55,1.25,0.92*01

$GPRMC,132705.000,A,5233.3302,N,01320.6067,E,0.28,294.26,010517,,,D*68

$GPVTG,294.26,T,,M,0.28,N,0.52,K,D*3E

$GPGGA,132706.000,5233.3302,N,01320.6066,E,2,07,1.25,26.0,M,44.7,M,0000,0000*5F

$GPGSA,A,3,14,12,32,29,24,25,31,,,,,,1.55,1.25,0.92*01

$GPRMC,132706.000,A,5233.3302,N,01320.6066,E,0.28,306.34,010517,,,D*63

$GPVTG,306.34,T,,M,0.28,N,0.51,K,D*34

$GPGGA,132707.000,5233.3303,N,01320.6065,E,2,07,1.25,26.0,M,44.7,M,0000,0000*5C

$GPGSA,A,3,14,12,32,29,24,25,31,,,,,,1.55,1.25,0.92*01

$GPRMC,132707.000,A,5233.3303,N,01320.6065,E,0.30,308.96,010517,,,D*6F

$GPVTG,308.96,T,,M,0.30,N,0.56,K,D*3C

$GPGGA,132708.000,5233.3303,N,01320.6064,E,2,07,1.25,26.0,M,44.7,M,0000,0000*52

$GPGSA,A,3,14,12,32,29,24,25,31,,,,,,1.55,1.25,0.92*01

$GPGSV,3,1,12,25,68,283,30,12,62,078,19,02,37,105,14,14,32,292,17*77

$GPGSV,3,2,12,24,32,153,22,29,31,211,36,32,31,264,23,06,27,054,22*75

$GPGSV,3,3,12,31,21,309,24,19,08,046,,03,03,354,,34,,,*40

$GPRMC,132708.000,A,5233.3303,N,01320.6064,E,0.31,297.72,010517,,,D*6D

$GPVTG,297.72,T,,M,0.31,N,0.58,K,D*3E

$GPGGA,132709.000,5233.3304,N,01320.6063,E,2,07,1.25,26.0,M,44.7,M,0000,0000*53

$GPGSA,A,3,14,12,32,29,24,25,31,,,,,,1.55,1.25,0.92*01

$GPRMC,132709.000,A,5233.3304,N,01320.6063,E,0.24,278.27,010517,,,D*69

$GPVTG,278.27,T,,M,0.24,N,0.45,K,D*37

$GPGGA,132710.000,5233.3304,N,01320.6062,E,2,07,1.25,26.0,M,44.7,M,0000,0000*5A

$GPGSA,A,3,14,12,32,29,24,25,31,,,,,,1.55,1.25,0.92*01

$GPRMC,132710.000,A,5233.3304,N,01320.6062,E,0.20,278.06,010517,,,D*67

$GPVTG,278.06,T,,M,0.20,N,0.38,K,D*3A

$GPGGA,132711.000,5233.3304,N,01320.6061,E,2,07,1.25,26.0,M,44.7,M,0000,0000*58

$GPGSA,A,3,14,12,32,29,24,25,31,,,,,,1.55,1.25,0.92*01

$GPRMC,132711.000,A,5233.3304,N,01320.6061,E,0.17,313.04,010517,,,D*6F

$GPVTG,313.04,T,,M,0.17,N,0.31,K,D*39

$GPGGA,132712.000,5233.3304,N,01320.6060,E,2,07,1.25,26.0,M,44.7,M,0000,0000*5A

$GPGSA,A,3,14,12,32,29,24,25,31,,,,,,1.55,1.25,0.92*01

$GPRMC,132712.000,A,5233.3304,N,01320.6060,E,0.12,315.79,010517,,,D*64

$GPVTG,315.79,T,,M,0.12,N,0.23,K,D*33

$GPGGA,132713.000,5233.3304,N,01320.6060,E,2,07,1.25,26.0,M,44.7,M,0000,0000*5B

$GPGSA,A,3,14,12,32,29,24,25,31,,,,,,1.55,1.25,0.92*01

$GPGSV,3,1,12,25,68,283,30,12,62,078,20,02,37,105,15,14,32,292,19*72

$GPGSV,3,2,12,24,32,153,21,29,31,211,36,32,31,264,24,06,27,054,19*79

$GPGSV,3,3,12,31,21,309,26,19,07,046,,03,03,354,,34,,,*4D

$GPRMC,132713.000,A,5233.3304,N,01320.6060,E,0.11,341.02,010517,,,D*6B

$GPVTG,341.02,T,,M,0.11,N,0.21,K,D*3F

$GPGGA,132714.000,5233.3305,N,01320.6060,E,2,07,1.25,26.0,M,44.7,M,0000,0000*5D

$GPGSA,A,3,14,12,32,29,24,25,31,,,,,,1.55,1.25,0.92*01

$GPRMC,132714.000,A,5233.3305,N,01320.6060,E,0.02,356.53,010517,,,D*6D

$GPVTG,356.53,T,,M,0.02,N,0.04,K,D*38

$GPGGA,132715.000,5233.3305,N,01320.6060,E,2,07,1.37,26.0,M,44.7,M,0000,0000*5F

$GPGSA,A,3,14,12,32,29,24,25,31,,,,,,2.68,1.37,2.30*05

$GPRMC,132715.000,A,5233.3305,N,01320.6060,E,0.23,300.69,010517,,,D*65

$GPVTG,300.69,T,,M,0.23,N,0.43,K,D*32

$GPGGA,132716.000,5233.3305,N,01320.6059,E,2,07,1.25,26.0,M,44.7,M,0000,0000*55

$GPGSA,A,3,14,12,32,29,24,25,31,,,,,,1.55,1.25,0.92*01

$GPRMC,132716.000,A,5233.3305,N,01320.6059,E,0.19,304.41,010517,,,D*6B

$GPVTG,304.41,T,,M,0.19,N,0.36,K,D*37

$GPGGA,132717.000,5233.3305,N,01320.6058,E,2,07,1.25,26.0,M,44.7,M,0000,0000*55

$GPGSA,A,3,14,12,32,29,24,25,31,,,,,,1.55,1.25,0.92*01

$GPRMC,132717.000,A,5233.3305,N,01320.6058,E,0.10,320.38,010517,,,D*6A

$GPVTG,320.38,T,,M,0.10,N,0.19,K,D*3B

$GPGGA,132718.000,5233.3305,N,01320.6058,E,2,07,1.25,26.0,M,44.7,M,0000,0000*5A

$GPGSA,A,3,14,12,32,29,24,25,31,,,,,,1.55,1.25,0.92*01

$GPGSV,3,1,12,25,68,284,30,12,62,078,22,02,37,105,15,14,32,292,20*7D

$GPGSV,3,2,12,24,32,153,18,29,31,211,36,32,31,264,25,06,27,054,17*7C

$GPGSV,3,3,12,31,21,309,29,19,07,046,,03,03,354,,35,,,*43

$GPRMC,132718.000,A,5233.3305,N,01320.6058,E,0.06,109.04,010517,,,D*64

$GPVTG,109.04,T,,M,0.06,N,0.10,K,D*33

$GPGGA,132719.000,5233.3305,N,01320.6059,E,2,07,1.25,26.0,M,44.7,M,0000,0000*5A

$GPGSA,A,3,14,12,32,29,24,25,31,,,,,,1.55,1.25,0.92*01

$GPRMC,132719.000,A,5233.3305,N,01320.6059,E,0.12,61.68,010517,,,D*54

$GPVTG,61.68,T,,M,0.12,N,0.22,K,D*02

$GPGGA,132720.000,5233.3305,N,01320.6059,E,2,07,1.25,26.0,M,44.7,M,0000,0000*50

$GPGSA,A,3,14,12,32,29,24,25,31,,,,,,1.55,1.25,0.92*01

$GPRMC,132720.000,A,5233.3305,N,01320.6059,E,0.26,59.73,010517,,,D*58

$GPVTG,59.73,T,,M,0.26,N,0.48,K,D*08

$GPGGA,132721.000,5233.3306,N,01320.6061,E,2,07,1.25,26.0,M,44.7,M,0000,0000*59

$GPGSA,A,3,14,12,32,29,24,25,31,,,,,,1.55,1.25,0.92*01

$GPRMC,132721.000,A,5233.3306,N,01320.6061,E,0.26,72.04,010517,,,D*58

$GPVTG,72.04,T,,M,0.26,N,0.49,K,D*00

$GPGGA,132722.000,5233.3306,N,01320.6062,E,2,07,1.25,26.0,M,44.7,M,0000,0000*59

$GPGSA,A,3,14,12,32,29,24,25,31,,,,,,1.55,1.25,0.92*01

$GPRMC,132722.000,A,5233.3306,N,01320.6062,E,0.29,98.45,010517,,,D*56

$GPVTG,98.45,T,,M,0.29,N,0.53,K,D*05

$GPGGA,132723.000,5233.3306,N,01320.6063,E,2,07,1.25,26.0,M,44.7,M,0000,0000*59

$GPGSA,A,3,14,12,32,29,24,25,31,,,,,,1.55,1.25,0.92*01

$GPGSV,3,1,12,25,68,284,29,12,62,078,22,02,37,105,15,14,32,292,20*75

$GPGSV,3,2,12,29,32,212,34,24,32,153,20,32,31,264,25,06,27,054,16*74

$GPGSV,3,3,12,31,21,309,29,19,07,046,,03,03,354,,36,,,*40

$GPRMC,132723.000,A,5233.3306,N,01320.6063,E,0.44,100.26,010517,,,D*68

$GPVTG,100.26,T,,M,0.44,N,0.81,K,D*34

$GPGGA,132724.000,5233.3305,N,01320.6066,E,2,07,1.25,26.0,M,44.7,M,0000,0000*58

$GPGSA,A,3,14,12,32,29,24,25,31,,,,,,1.55,1.25,0.92*01

$GPRMC,132724.000,A,5233.3305,N,01320.6066,E,0.42,109.97,010517,,,D*6C

$GPVTG,109.97,T,,M,0.42,N,0.77,K,D*38

$GPGGA,132725.000,5233.3305,N,01320.6067,E,2,07,1.25,26.0,M,44.7,M,0000,0000*58

$GPGSA,A,3,14,12,32,29,24,25,31,,,,,,1.55,1.25,0.92*01

$GPRMC,132725.000,A,5233.3305,N,01320.6067,E,0.38,105.43,010517,,,D*64

$GPVTG,105.43,T,,M,0.38,N,0.70,K,D*37

$GPGGA,132726.000,5233.3305,N,01320.6069,E,2,07,1.25,26.0,M,44.7,M,0000,0000*55

$GPGSA,A,3,14,12,32,29,24,25,31,,,,,,1.55,1.25,0.92*01

$GPRMC,132726.000,A,5233.3305,N,01320.6069,E,0.23,119.00,010517,,,D*69

$GPVTG,119.00,T,,M,0.23,N,0.42,K,D*36

$GPGGA,132727.000,5233.3304,N,01320.6070,E,2,07,1.25,26.0,M,44.7,M,0000,0000*5D

$GPGSA,A,3,14,12,32,29,24,25,31,,,,,,1.55,1.25,0.92*01

$GPRMC,132727.000,A,5233.3304,N,01320.6070,E,0.13,133.47,010517,,,D*69

$GPVTG,133.47,T,,M,0.13,N,0.24,K,D*3E

$GPGGA,132728.000,5233.3304,N,01320.6070,E,2,07,1.25,26.0,M,44.7,M,0000,0000*52

$GPGSA,A,3,14,12,32,29,24,25,31,,,,,,1.55,1.25,0.92*01

$GPGSV,3,1,12,25,68,284,29,12,62,078,19,02,37,105,13,14,32,292,19*71

$GPGSV,3,2,12,29,32,212,34,24,32,153,23,32,31,264,26,06,27,054,16*74

$GPGSV,3,3,12,31,21,309,29,19,07,046,,03,03,354,,36,,,27*45

$GPRMC,132728.000,A,5233.3304,N,01320.6070,E,0.19,169.29,010517,,,D*6B

$GPVTG,169.29,T,,M,0.19,N,0.35,K,D*33

$GPGGA,132729.000,5233.3303,N,01320.6070,E,2,07,1.25,26.0,M,44.7,M,0000,0000*54

$GPGSA,A,3,14,12,32,29,24,25,31,,,,,,1.55,1.25,0.92*01

$GPRMC,132729.000,A,5233.3303,N,01320.6070,E,0.19,199.39,010517,,,D*63

$GPVTG,199.39,T,,M,0.19,N,0.34,K,D*3C

$GPGGA,132730.000,5233.3303,N,01320.6070,E,2,07,1.25,26.0,M,44.7,M,0000,0000*5C

$GPGSA,A,3,14,12,32,29,24,25,31,,,,,,1.55,1.25,0.92*01

$GPRMC,132730.000,A,5233.3303,N,01320.6070,E,0.30,189.04,010517,,,D*6F

$GPVTG,189.04,T,,M,0.30,N,0.56,K,D*3C

$GPGGA,132731.000,5233.3302,N,01320.6070,E,2,07,1.25,26.0,M,44.7,M,0000,0000*5C

$GPGSA,A,3,14,12,32,29,24,25,31,,,,,,1.55,1.25,0.92*01

$GPRMC,132731.000,A,5233.3302,N,01320.6070,E,0.27,179.81,010517,,,D*6B

$GPVTG,179.81,T,,M,0.27,N,0.49,K,D*36

$GPGGA,132732.000,5233.3301,N,01320.6070,E,2,07,1.25,26.0,M,44.7,M,0000,0000*5C

$GPGSA,A,3,14,12,32,29,24,25,31,,,,,,1.55,1.25,0.92*01

$GPRMC,132732.000,A,5233.3301,N,01320.6070,E,0.33,168.22,010517,,,D*67

$GPVTG,168.22,T,,M,0.33,N,0.61,K,D*30

$GPGGA,132733.000,5233.3300,N,01320.6070,E,2,07,1.25,26.0,M,44.7,M,0000,0000*5C

$GPGSA,A,3,14,12,32,29,24,25,31,,,,,,1.55,1.25,0.92*01

$GPGSV,3,1,12,25,68,284,27,12,62,078,18,02,37,105,16,14,32,292,19*7B

$GPGSV,3,2,12,29,32,212,35,24,32,153,27,32,31,264,27,06,27,054,15*73

$GPGSV,3,3,12,31,21,309,30,19,07,046,,03,03,353,,36,,,28*45

$GPRMC,132733.000,A,5233.3300,N,01320.6070,E,0.33,183.95,010517,,,D*6E

$GPVTG,183.95,T,,M,0.33,N,0.61,K,D*39

$GPGGA,132734.000,5233.3299,N,01320.6070,E,2,07,1.25,26.1,M,44.7,M,0000,0000*5B

$GPGSA,A,3,14,12,32,29,24,25,31,,,,,,1.55,1.25,0.92*01

$GPRMC,132734.000,A,5233.3299,N,01320.6070,E,0.26,183.99,010517,,,D*60

$GPVTG,183.99,T,,M,0.26,N,0.48,K,D*3A

$GPGGA,132735.000,5233.3299,N,01320.6070,E,2,07,1.25,26.1,M,44.7,M,0000,0000*5A

$GPGSA,A,3,14,12,32,29,24,25,31,,,,,,1.55,1.25,0.92*01

$GPRMC,132735.000,A,5233.3299,N,01320.6070,E,0.28,205.67,010517,,,D*63

$GPVTG,205.67,T,,M,0.28,N,0.53,K,D*32

$GPGGA,132736.000,5233.3298,N,01320.6069,E,2,07,1.25,26.1,M,44.7,M,0000,0000*50

$GPGSA,A,3,14,12,32,29,24,25,31,,,,,,1.55,1.25,0.92*01

$GPRMC,132736.000,A,5233.3298,N,01320.6069,E,0.30,206.58,010517,,,D*6F

$GPVTG,206.58,T,,M,0.30,N,0.56,K,D*31

$GPGGA,132737.000,5233.3297,N,01320.6069,E,2,07,1.25,26.1,M,44.7,M,0000,0000*5E

$GPGSA,A,3,14,12,32,29,24,25,31,,,,,,1.55,1.25,0.92*01

$GPRMC,132737.000,A,5233.3297,N,01320.6069,E,0.47,197.60,010517,,,D*61

$GPVTG,197.60,T,,M,0.47,N,0.88,K,D*32

$GPGGA,132738.000,5233.3296,N,01320.6068,E,2,07,1.25,26.1,M,44.7,M,0000,0000*51

$GPGSA,A,3,14,12,32,29,24,25,31,,,,,,1.55,1.25,0.92*01

$GPGSV,3,1,12,25,68,284,25,12,62,078,19,02,37,105,16,14,32,292,18*79

$GPGSV,3,2,12,29,32,212,35,24,32,153,29,32,31,264,28,06,27,054,14*73

$GPGSV,3,3,12,31,21,309,30,19,07,046,,03,03,353,,36,,,28*45

$GPRMC,132738.000,A,5233.3296,N,01320.6068,E,0.44,199.79,010517,,,D*6B

$GPVTG,199.79,T,,M,0.44,N,0.82,K,D*3D

$GPGGA,132739.000,5233.3295,N,01320.6067,E,2,07,1.25,26.1,M,44.7,M,0000,0000*5C

$GPGSA,A,3,14,12,32,29,24,25,31,,,,,,1.55,1.25,0.92*01

$GPRMC,132739.000,A,5233.3295,N,01320.6067,E,0.50,215.14,010517,,,D*6F

$GPVTG,215.14,T,,M,0.50,N,0.93,K,D*34

$GPGGA,132740.000,5233.3293,N,01320.6066,E,2,07,1.25,26.1,M,44.7,M,0000,0000*55

$GPGSA,A,3,14,12,32,29,24,25,31,,,,,,1.55,1.25,0.92*01

$GPRMC,132740.000,A,5233.3293,N,01320.6066,E,0.50,225.14,010517,,,D*65

$GPVTG,225.14,T,,M,0.50,N,0.92,K,D*36

$GPGGA,132741.000,5233.3292,N,01320.6064,E,2,07,1.25,26.1,M,44.7,M,0000,0000*57

$GPGSA,A,3,14,12,32,29,24,25,31,,,,,,1.55,1.25,0.92*01

$GPRMC,132741.000,A,5233.3292,N,01320.6064,E,0.35,221.37,010517,,,D*61

$GPVTG,221.37,T,,M,0.35,N,0.66,K,D*3B

$GPGGA,132742.000,5233.3292,N,01320.6063,E,2,07,1.25,26.1,M,44.7,M,0000,0000*53

$GPGSA,A,3,14,12,32,29,24,25,31,,,,,,1.55,1.25,0.92*01

$GPRMC,132742.000,A,5233.3292,N,01320.6063,E,0.21,211.84,010517,,,D*6B

$GPVTG,211.84,T,,M,0.21,N,0.40,K,D*31

$GPGGA,132743.000,5233.3291,N,01320.6062,E,2,07,1.25,26.1,M,44.7,M,0000,0000*50

$GPGSA,A,3,14,12,32,29,24,25,31,,,,,,1.55,1.25,0.92*01

$GPGSV,3,1,12,25,68,284,24,12,62,079,19,02,37,105,15,14,32,292,19*7B

$GPGSV,3,2,12,29,32,212,36,24,32,153,31,32,31,264,28,06,27,054,13*7E

$GPGSV,3,3,12,31,21,309,31,19,07,046,,03,03,353,,36,,,28*44

$GPRMC,132743.000,A,5233.3291,N,01320.6062,E,0.16,215.21,010517,,,D*67

$GPVTG,215.21,T,,M,0.16,N,0.30,K,D*39

$GPGGA,132744.000,5233.3291,N,01320.6062,E,2,07,1.25,26.1,M,44.7,M,0000,0000*57

$GPGSA,A,3,14,12,32,29,24,25,31,,,,,,1.55,1.25,0.92*01

$GPRMC,132744.000,A,5233.3291,N,01320.6062,E,0.24,214.35,010517,,,D*65

$GPVTG,214.35,T,,M,0.24,N,0.45,K,D*3E

$GPGGA,132745.000,5233.3290,N,01320.6061,E,2,07,1.25,26.1,M,44.7,M,0000,0000*54

$GPGSA,A,3,14,12,32,29,24,25,31,,,,,,1.55,1.25,0.92*01

$GPRMC,132745.000,A,5233.3290,N,01320.6061,E,0.32,235.96,010517,,,D*6B

$GPVTG,235.96,T,,M,0.32,N,0.60,K,D*34

$GPGGA,132746.000,5233.3290,N,01320.6060,E,2,07,1.25,26.1,M,44.7,M,0000,0000*56

$GPGSA,A,3,14,12,32,29,24,25,31,,,,,,1.55,1.25,0.92*01

$GPRMC,132746.000,A,5233.3290,N,01320.6060,E,0.26,249.53,010517,,,D*6E

$GPVTG,249.53,T,,M,0.26,N,0.48,K,D*39

$GPGGA,132747.000,5233.3289,N,01320.6059,E,2,07,1.25,26.1,M,44.7,M,0000,0000*55

$GPGSA,A,3,14,12,32,29,24,25,31,,,,,,1.55,1.25,0.92*01

$GPRMC,132747.000,A,5233.3289,N,01320.6059,E,0.32,262.46,010517,,,D*65

$GPVTG,262.46,T,,M,0.32,N,0.59,K,D*31

$GPGGA,132748.000,5233.3289,N,01320.6057,E,2,07,1.25,26.1,M,44.7,M,0000,0000*54

$GPGSA,A,3,14,12,32,29,24,25,31,,,,,,1.55,1.25,0.92*01

$GPGSV,3,1,12,25,68,284,24,12,62,079,18,02,37,105,13,14,32,292,20*76

$GPGSV,3,2,12,29,32,212,37,24,32,153,32,32,31,264,28,06,27,054,12*7D

$GPGSV,3,3,12,31,21,309,30,19,07,046,,03,03,353,,36,,,28*45

$GPRMC,132748.000,A,5233.3289,N,01320.6057,E,0.41,266.69,010517,,,D*69

$GPVTG,266.69,T,,M,0.41,N,0.76,K,D*31

$GPGGA,132749.000,5233.3289,N,01320.6055,E,2,07,1.25,26.1,M,44.7,M,0000,0000*57

$GPGSA,A,3,14,12,32,29,24,25,31,,,,,,1.55,1.25,0.92*01

$GPRMC,132749.000,A,5233.3289,N,01320.6055,E,0.41,248.70,010517,,,D*6E

$GPVTG,248.70,T,,M,0.41,N,0.76,K,D*35

$GPGGA,132750.000,5233.3289,N,01320.6053,E,2,07,1.25,26.1,M,44.7,M,0000,0000*59

$GPGSA,A,3,14,12,32,29,24,25,31,,,,,,1.55,1.25,0.92*01

$GPRMC,132750.000,A,5233.3289,N,01320.6053,E,0.35,235.42,010517,,,D*68

$GPVTG,235.42,T,,M,0.35,N,0.65,K,D*3F

$GPGGA,132751.000,5233.3288,N,01320.6052,E,2,07,1.25,26.2,M,44.7,M,0000,0000*5B

$GPGSA,A,3,14,12,32,29,24,25,31,,,,,,1.55,1.25,0.92*01

$GPRMC,132751.000,A,5233.3288,N,01320.6052,E,0.52,235.15,010517,,,D*6A

$GPVTG,235.15,T,,M,0.52,N,0.97,K,D*31

$GPGGA,132752.000,5233.3287,N,01320.6050,E,2,07,1.25,26.2,M,44.7,M,0000,0000*55

$GPGSA,A,3,14,12,32,29,24,25,31,,,,,,1.55,1.25,0.92*01

$GPRMC,132752.000,A,5233.3287,N,01320.6050,E,0.48,245.70,010517,,,D*6B

$GPVTG,245.70,T,,M,0.48,N,0.90,K,D*39

$GPGGA,132753.000,5233.3287,N,01320.6048,E,2,07,1.25,26.2,M,44.7,M,0000,0000*5D

$GPGSA,A,3,14,12,32,29,24,25,31,,,,,,1.55,1.25,0.92*01

$GPGSV,3,1,12,25,68,284,22,12,62,079,17,02,37,105,16,14,32,292,21*7B

$GPGSV,3,2,12,29,32,212,36,24,31,153,32,32,31,264,26,06,27,054,16*75

$GPGSV,3,3,12,36,27,157,28,31,21,309,30,19,07,046,,03,03,353,*73

$GPRMC,132753.000,A,5233.3287,N,01320.6048,E,0.55,228.87,010517,,,D*6C

$GPVTG,228.87,T,,M,0.55,N,1.02,K,D*3C

$GPGGA,132754.000,5233.3286,N,01320.6046,E,2,07,1.25,26.2,M,44.7,M,0000,0000*55

$GPGSA,A,3,14,12,32,29,24,25,31,,,,,,1.55,1.25,0.92*01

$GPRMC,132754.000,A,5233.3286,N,01320.6046,E,0.63,232.49,010517,,,D*68

$GPVTG,232.49,T,,M,0.63,N,1.16,K,D*35

$GPGGA,132755.000,5233.3285,N,01320.6043,E,2,07,1.25,26.2,M,44.7,M,0000,0000*52

$GPGSA,A,3,14,12,32,29,24,25,31,,,,,,1.55,1.25,0.92*01

$GPRMC,132755.000,A,5233.3285,N,01320.6043,E,0.60,236.80,010517,,,D*6D

$GPVTG,236.80,T,,M,0.60,N,1.10,K,D*31

$GPGGA,132756.000,5233.3285,N,01320.6037,E,2,07,1.24,26.3,M,44.7,M,0000,0000*52

$GPGSA,A,3,14,12,32,29,24,25,31,,,,,,1.55,1.24,0.92*00

$GPRMC,132756.000,A,5233.3285,N,01320.6037,E,0.70,252.45,010517,,,D*67

$GPVTG,252.45,T,,M,0.70,N,1.29,K,D*31

$GPGGA,132757.000,5233.3284,N,01320.6035,E,2,07,1.25,26.3,M,44.7,M,0000,0000*51

$GPGSA,A,3,14,12,32,29,24,25,31,,,,,,1.55,1.25,0.92*01

$GPRMC,132757.000,A,5233.3284,N,01320.6035,E,0.64,240.30,010517,,,D*61

$GPVTG,240.30,T,,M,0.64,N,1.19,K,D*36

